[
    "State":
    { "name": "Washington",
    "location": "Mattawa",
    "hours": "12",
    "description":"My grandma and grandpa lives in Washington.",
    "date": "2017-04-14",
    "img": "",
    }
    { "name": "Oregon",
    "location": "Eugene",
    "hours": "14",
    "description":"I’ve been to the beach, and visited my family that lives in Oregon.",
    "date": "2011-11-11",
    "img": "",
    }
    { "name": "California",
    "location": "San Diego",
    "hours": "13",
    "description":"I have been to Disney land and the beach. I have been to California to visit family. ",
    "date": "2011-11-11",
    "img": "",
    }
    { "name": "Idaho",
    "location": "Rexburg",
    "hours": "4",
    "description":"I go to school and do shopping in Idaho.",
    "date": "2017-05-07",
    "img": "",
    }
    { "name": "Nevada",
    "location": "Las Vegas",
    "hours": "8hrs 30min",
    "description":"I went the Las Vegas and have passed through Nevada to travel other states.",
    "date": "2011-11-11",
    "img": "",
    }
    { "name": "Montana",
    "location": "Dillon",
    "hours": "5hrs 30min",
    "description":"I have passed through it when going to Washington.",
    "date": "2011-11-11",
    "img": "",
    }
    { "name": "Wyoming",
    "location": "La Barge",
    "hours": "0hrs",
    "description":"I live in Wyoming",
    "date": "2011-11-11",
    "img": "",
    }
    { "name": "Arizona",
    "location": "San Diego",
    "hours": "13",
    "description":"I would visit my great grandpa in Arizona in the winter.",
    "date": "2011-11-11",
    "img": "",
    }
    { "name": "New Mexico",
    "location": "Albuquerque",
    "hours": "12 hrs 30min",
    "description":"I went there with my family when I was little. ",
    "date": "2011-11-11",
    "img": "",
    }
    { "name": "Colorado",
    "location": "Denver",
    "hours": "6hrs 30min",
    "description":"I’ve been to Denver.",
    "date": "2011-11-11",
    "img": "",
    }
    { "name": "Nebraska",
    "location": "Omaha",
    "hours": "12",
    "description":"Drove through this state to go to Iowa.",
    "date": "2011-11-11",
    "img": "",
    }
    { "name": "Iowa",
    "location": "Des Moines",
    "hours": "14",
    "description":"I visited an aunt in the capital.",
    "date": "2011-11-11",
    "img": "",
    }
    { "name": "Florida",
    "location": "Orlando",
    "hours": "32",
    "description":"Went to Disney World.",
    "date": "2011-11-11",
    "img": "",
    }
    { "name": "Texas",
    "location": "Dell City",
    "hours": "16hrs 30min",
    "description":"I stepped into Texas.",
    "date": "2011-11-11",
    "img": "",
    }
    { "name": "Alabama",
    "location": "",
    "hours": "",
    "img": "",
    }
]
